[{"Venue_ID":"11140","Name":"Mellow Mushroom","Cuisine":"Pizza","Address":"1321 W Main St.","Phone_Number":"4349729366","Hours":"Sun-Sat: 11AM - 2AM","Formality":"Casual","Price_Range":"$","Description":"Funky, art-filled chain pizzeria featuring craft beer, calzones & creative stone-baked pizzas.","Kid_Friendly":"1","Number_of_Favorites":"0"},{"Venue_ID":"11141","Name":"The Southern Cafe & Music Hall","Cuisine":"American","Address":"103 S. First St","Phone_Number":"4349775590","Hours":"Mon-Sun: 11 AM - 2 PM, 6 PM - 9 PM \nAdditional Hours Depending on Events\/Bookings","Formality":"Sit-Down","Price_Range":"$","Description":"Intimate venue with a full bar featuring Southern-style chow & shows from local & touring bands.","Kid_Friendly":"0","Number_of_Favorites":"0"},{"Venue_ID":"11142","Name":"Dominos","Cuisine":"Pizza","Address":"1137 Millmont St","Phone_Number":"4349718383","Hours":"Sun-Thu: 10:30 AM - 12 AM\nFri-Sat: 10:30 AM - 1 AM ","Formality":"Casual","Price_Range":"$","Description":"An American pizza restaurant chain.","Kid_Friendly":"1","Number_of_Favorites":"0"},{"Venue_ID":"11143","Name":"Insomnia Cookies","Cuisine":"Dessert","Address":"1409 University Ave","Phone_Number":"8776326654","Hours":"Sat-Sun: 11 AM \u2013 3 AM \nMon-Fri: 9 AM \u2013 3 AM ","Formality":"Casual","Price_Range":"$","Description":"Bakery chain known for late-night deliveries, with some locations selling ice cream.","Kid_Friendly":"0","Number_of_Favorites":"0"},{"Venue_ID":"11144","Name":"Red Eye Cookie Co. ","Cuisine":"Dessert","Address":"104 14th St NW","Phone_Number":"4342600104","Hours":"Sun: 6 PM \u2013 12 AM \nMon-Fri: 24 hours \nSat: 12 AM \u2013 2:30 AM, 6 PM \u2013 2:30 AM  ","Formality":"Casual","Price_Range":"$","Description":"Specialty bakery selling gourmet cookies, cold milk & hot coffee till late at night.","Kid_Friendly":"0","Number_of_Favorites":"0"},{"Venue_ID":"11145","Name":"Arch's Frozen Yogurt","Cuisine":"Dessert","Address":"104 14th St NW #1","Phone_Number":"4349842724","Hours":"Sun-Thu: 11 AM \u2013 11 PM Fri-Sat: 11 AM \u2013 12 AM  ","Formality":"Casual","Price_Range":"$","Description":"Frozen yogurt shop on The Corner known for its brownie batter topping","Kid_Friendly":"1","Number_of_Favorites":"0"},{"Venue_ID":"11146","Name":"Sweet Frog","Cuisine":"Dessert","Address":"2130 Barracks Rd","Phone_Number":"4342931130","Hours":"Sun: 12 PM \u2013 10 PM \nMon-Thu: 11:30 PM \u2013 10 PM \nFri-Sat: 11:30 AM \u2013 11 PM   ","Formality":"Casual","Price_Range":"$","Description":"National chain with dozens of flavor combinations of soft-serve frozen yogurt, plus sorbet.","Kid_Friendly":"1","Number_of_Favorites":"0"},{"Venue_ID":"11147","Name":"Doma Korean Kitchen","Cuisine":"Korean","Address":"701 W. Main St","Phone_Number":"7033363918","Hours":"Sun: 5 PM - 10 PM\nMon: CLOSED \nTue-Sat: 11 AM - 3 PM, 5 PM - 10 PM ","Formality":"Sit-Down","Price_Range":"$$","Description":"Restaurant specializing in Korean fare that is fast-casual for lunch and sit-down for dinner","Kid_Friendly":"1","Number_of_Favorites":"0"},{"Venue_ID":"11148","Name":"Hamilton's at First and Main","Cuisine":"American","Address":"101 W Main St","Phone_Number":"4342956649","Hours":"Sun: 11 AM - 3 PM \nMon-Thu: 11:30 AM - 3 PM, 5 PM - 9 PM \nFri-Sat: 11 AM - 3 PM, 5 PM - 10 PM","Formality":"Fancy","Price_Range":"$$$","Description":"New American dining & full bar plus an extensive wine list in a sophisticated yet casual setting.","Kid_Friendly":"0","Number_of_Favorites":"0"},{"Venue_ID":"11149","Name":"Kuma","Cuisine":"Japanese","Address":"12 Elliewood Ave.","Phone_Number":"4343282741","Hours":"Sun-Wed: 11 AM - 10 PM \nThu-Sat: 11 AM - 2 AM","Formality":"Sit-Down","Price_Range":"$","Description":"Sushi restaurant and bar featuring karaoke","Kid_Friendly":"1","Number_of_Favorites":"0"},{"Venue_ID":"11150","Name":"Asian Express","Cuisine":"Chinese","Address":"909 W. Main St.","Phone_Number":"4349791888","Hours":"Sun-Thu: 10:30 AM - 10:30 PMFri-Sat: 10:30 AM - 11 PM","Formality":"Casual","Price_Range":"$","Description":"Quick-serve take-out & delivery spot for Chinese eats & sushi in a historic building.","Kid_Friendly":"1","Number_of_Favorites":"0"},{"Venue_ID":"11151","Name":"Bamboo House","Cuisine":"Korean","Address":"4831 Seminole Trail","Phone_Number":"4349739211","Hours":"N\/A","Formality":"Casual","Price_Range":"$","Description":"Korean restaurant in Charlottesville, VA","Kid_Friendly":"1","Number_of_Favorites":"0"},{"Venue_ID":"11152","Name":"Bang!","Cuisine":"Asian Fusion","Address":"213 Second St.","Phone_Number":"4349842264","Hours":"Sun-Thu: 5:30 PM - 9:30 PM \nFri-Sat: 5:30 PM - 11 PM","Formality":"Sit-Down","Price_Range":"$","Description":"Cozy house with stylish decor & backlit bar preparing Asian-inspired tapas & inventive martinis.","Kid_Friendly":"1","Number_of_Favorites":"0"},{"Venue_ID":"11153","Name":"Zinburger","Cuisine":"American","Address":"973 Emmet St N","Phone_Number":"4342442604","Hours":"Sun-Thu: 11 AM - 10 PM\nFri-Sat: 11 AM - 11 PM","Formality":"Sit-Down","Price_Range":"$$$","Description":"Specialty burger bar with milkshakes","Kid_Friendly":"1","Number_of_Favorites":"0"},{"Venue_ID":"11154","Name":"Citizen Burger","Cuisine":"American","Address":"212 E Main St","Phone_Number":"4349799944","Hours":"Sun-Thu: 11:30 AM - 12 AM\nFri-Sat: 11:30 AM - 2 AM","Formality":"Sit-Down","Price_Range":"$$$","Description":"Inviting eatery turning out hamburgers & many craft beers in a brick-walled space with a patio.","Kid_Friendly":"1","Number_of_Favorites":"0"},{"Venue_ID":"11155","Name":"Guadalajara","Cuisine":"Mexican","Address":"2206 Fontaine Ave","Phone_Number":"4349792424","Hours":"Sun: 11:30 AM - 9 PM\nMon-Fri: 11 AM - 10 PM\nSat: 11:30 AM - 10 PM","Formality":"Sit-Down","Price_Range":"$$","Description":"Local chain serving Mexican favorites, plus beer, wine & margaritas in an informal setting.","Kid_Friendly":"1","Number_of_Favorites":"0"},{"Venue_ID":"11156","Name":"Bizou","Cuisine":"American","Address":"119 W Main St","Phone_Number":"4349771818","Hours":"Sun: 11 AM - 2 PM, 5 PM - 9 PM \nMon-Thu: 11:30 AM - 2 PM, 5 PM - 9 PM \nFri: 11:30 AM - 2 PM, 5 PM - 10 PM \nSat: 11:30 AM - 2:30 PM, 5 PM - 10 PM","Formality":"Sit-Down","Price_Range":"$$$","Description":"Favorites like meatloaf & pot pie join updated Southern fare in a former diner with plaza seating.","Kid_Friendly":"1","Number_of_Favorites":"1"},{"Venue_ID":"11157","Name":"Himalayan Fusion","Cuisine":"Indian","Address":"520 E Main St","Phone_Number":"4342933120","Hours":"Sun: 5 - 9 PM \nMon: 11:30 AM - 2:30 PM \nTue-Thu: 11:30 AM - 2:30 PM, 5 PM - 9 PM\nFri: 11:30 AM - 2:30 PM, 5 PM - 9:30 PM\nSat: 12 PM - 3 PM, 5 PM - 9:30 PM`","Formality":"Sit-Down","Price_Range":"$$","Description":"Murals adorn this bistro serving Indian, Nepalese and Tibetan cuisine, including a lunch buffet.","Kid_Friendly":"1","Number_of_Favorites":"0"},{"Venue_ID":"11158","Name":"Sheepdog Coffee","Cuisine":"Coffee Shop\/Quick Bites ","Address":"1309 W Main St","Phone_Number":"4342954333","Hours":"Sun-Tue: 6:30 AM \u2013 3 PM \nWed-Sat: 6:30 AM \u2013 5 PM ","Formality":"Casual","Price_Range":"$","Description":"Contemporary cafe located inside the Graduate Hotel","Kid_Friendly":"0","Number_of_Favorites":"0"},{"Venue_ID":"11159","Name":"Shenandoah Joe's","Cuisine":"Coffee Shop\/Quick Bites ","Address":"945 Preston Ave","Phone_Number":"4342954563","Hours":"Sun: CLOSED \nMon-Thu: 6:30 AM \u2013 7 PM \nFri: 6:30 AM \u2013 9 PM \nSat: 7:30 AM \u2013 9 PM  ","Formality":"Casual","Price_Range":"$","Description":"Local cafe and coffee roaster ","Kid_Friendly":"0","Number_of_Favorites":"0"},{"Venue_ID":"11160","Name":"Shenandoah Joe's","Cuisine":"Coffee Shop\/Quick Bites ","Address":"1325 W. Main St, Shop C","Phone_Number":"4348170456","Hours":"Sun: 7:30 AM \u2013 7 PM  \nMon-Fri: 6:30 AM \u2013 9 PM \nSat: 7:30 AM \u2013 9 PM  ","Formality":"Casual","Price_Range":"$","Description":"Local cafe and coffee roaster ","Kid_Friendly":"0","Number_of_Favorites":"0"},{"Venue_ID":"11161","Name":"Yuan Ho","Cuisine":"Chinese","Address":"117 Maury Ave","Phone_Number":"4349775868","Hours":"Sun: 12 PM - 10:30 PM\nMon-Fri: 11 AM - 10:30 PM\nSat: 4 PM - 10:30 PM","Formality":"Fast Food","Price_Range":"$","Description":"Modest take-out place offering Chinese noodles & stir-fries, plus some Japanese dishes","Kid_Friendly":"1","Number_of_Favorites":"0"},{"Venue_ID":"11162","Name":"The Biltmore","Cuisine":"American","Address":"16 Elliewood Ave","Phone_Number":"4342021498","Hours":"Sun-Sat: 11 AM - 2 AM","Formality":"Casual","Price_Range":"$","Description":"Charlottesville\u2019s only \u201cBeach Bar\u201d and the city\u2019s largest outdoor patio area, the Biltmore serves classic American food. ","Kid_Friendly":"0","Number_of_Favorites":"0"},{"Venue_ID":"11163","Name":"Trinity Irish Pub","Cuisine":"American","Address":"1404 University Ave","Phone_Number":"4342957100","Hours":"Sat-Sun: 10:30 AM \u2013 2 AM \nMon-Fri: 11 AM \u2013 2 AM  ","Formality":"Casual","Price_Range":"$","Description":"Convivial multi-level hangout with 3 bars, pub grub & numerous beers on tap, plus weekend brunch","Kid_Friendly":"0","Number_of_Favorites":"0"},{"Venue_ID":"11164","Name":"World of Beer","Cuisine":"American","Address":"852 W Main St","Phone_Number":"4349701088","Hours":"Sun-Wed: 11 AM \u2013 12 AM \nThu-Sat: 11 AM \u2013 2 AM  ","Formality":"Casual","Price_Range":"$$","Description":"Hangout featuring 500+ global beers, lots of craft drafts & tavern food in pub digs with TVs.","Kid_Friendly":"0","Number_of_Favorites":"0"},{"Venue_ID":"11165","Name":"Sushi King","Cuisine":"Japanese","Address":"Seminole Square Shopping Center, 175 Seminole Ct","Phone_Number":"4349781199","Hours":"Sun: 12 PM - 10 PM \nMon-Thu: 11 AM - 3:30 PM, 5 PM - 10 PM \nFri: 11 AM - 3:30 PM, 5 PM - 11 PM\nSat: 11 AM - 11 PM","Formality":"Sit-Down","Price_Range":"$$","Description":"Contemporary Japanese eatery with a casual ambiance known for all-you-can-eat sushi","Kid_Friendly":"1","Number_of_Favorites":"1"},{"Venue_ID":"11166","Name":"Royal Indian","Cuisine":"Indian","Address":"1250 Emmet St N","Phone_Number":"4349732288","Hours":"Sun: 12 PM - 3 PM, 5 PM - 10 PM\nMon-Fri: 11:30 AM - 2:30 PM, 5 PM - 10 PM\nSat: 12 PM - 3 PM, 5 PM - 10 PM","Formality":"Sit-Down","Price_Range":"$$","Description":"Casual Indian eatery offering a menu of classic dishes plus a daily lunch buffet with many options","Kid_Friendly":"1","Number_of_Favorites":"0"},{"Venue_ID":"11167","Name":"Milan","Cuisine":"Indian","Address":"1817 Emmet St N","Phone_Number":"4349842828","Hours":"Sun: 12 PM - 3 PM, 5 PM - 10 PM\nMon-Thu: 11:30 AM - 2:30 PM, 5 PM - 10 PM \nFri: 12 PM - 2:30 PM, 5 PM - 10:30 PM \nSat: 12 PM - 3 PM, 5 PM - 10:30 PM ","Formality":"Sit-Down","Price_Range":"$$","Description":"Acclaimed contemporary Indian fare in a colorful, sophisticated space with a daily lunch buffet","Kid_Friendly":"1","Number_of_Favorites":"0"},{"Venue_ID":"11168","Name":"Cookout","Cuisine":"Fast Food","Address":"1254 Emmet St N","Phone_Number":"4342440873","Hours":"Sat-Wed: 10:30 AM - 3:30 AM\r\nThu-Fri: 10:30 AM - 4:30 AM","Formality":"Fast Food","Price_Range":"$","Description":"Branch of a fast-food chain known for its drive-thru BBQ, burgers & more than 40 milkshake flavors","Kid_Friendly":"1","Number_of_Favorites":"0"},{"Venue_ID":"11169","Name":"Chick-Fil-A","Cuisine":"Fast Food","Address":"1576 Rio Rd E ","Phone_Number":"4349731646","Hours":"Sun: CLOSED \r\nMon: 10 AM - 9 PM \r\nTue-Sat: 9 AM - 9 PM","Formality":"Fast Food","Price_Range":"$","Description":"Fast-food chain serving chicken sandwiches, strips & nuggets along with salads & sides.","Kid_Friendly":"1","Number_of_Favorites":"0"},{"Venue_ID":"11170","Name":"The Virginian","Cuisine":"American","Address":"1521 University Ave","Phone_Number":"4349844667","Hours":"Sun: 10 AM \u2013 2 AM \nMon-Sat: 11 AM \u2013 2 AM  ","Formality":"Casual","Price_Range":"$","Description":"Local institution since 1923 serving American fare amid rustic wood decor, with a student bar scene","Kid_Friendly":"0","Number_of_Favorites":"0"},{"Venue_ID":"11171","Name":"Boylan Heights","Cuisine":"American","Address":"102 14th St NW","Phone_Number":"4349845707","Hours":"Sun-Sat: 11 AM \u2013 2 AM  ","Formality":"Casual","Price_Range":"$","Description":"Prep-school-themed sports tavern for the UVA set offering TVs, fancy burgers, draft beers & more","Kid_Friendly":"0","Number_of_Favorites":"0"},{"Venue_ID":"11172","Name":"Zip Chicken","Cuisine":"American","Address":"105 14th St NW","Phone_Number":"4342020772","Hours":"Sat-Sun: 12 PM - 10 PM \nMon-Fri: 11 AM - 10 PM","Formality":"Sit-Down","Price_Range":"$$","Description":"Local restuarant serving Korean chicken wings and fusion chicken dishes. ","Kid_Friendly":"1","Number_of_Favorites":"0"},{"Venue_ID":"11173","Name":"Ben & Jerry's","Cuisine":"Dessert","Address":"Barracks Rd Shopping Center, 1112 Emmet St N","Phone_Number":"4342447438","Hours":"Sun: 12 PM \u2013 10 PM \nMon-Thu: 11:30 AM \u2013 10 PM \nFri-Sat: 11:30 AM \u2013 11 PM ","Formality":"Casual","Price_Range":"$","Description":"Iconic Vermont-based ice cream parlor chain, known for its creative, cleverly named flavors","Kid_Friendly":"1","Number_of_Favorites":"0"},{"Venue_ID":"11174","Name":"Cold Stone Creamery","Cuisine":"Dessert","Address":"1709 Emmet St N","Phone_Number":"4345298526","Hours":"Sun: 12 PM \u2013 8 PM \nMon-Thu: 12 PM \u2013 9 PM \nFri-Sat: 12 PM \u2013 10 PM  ","Formality":"Casual","Price_Range":"$","Description":"Ice cream chain offering design-your-own creations hand-mixed on a granite slab, plus shakes & more","Kid_Friendly":"1","Number_of_Favorites":"0"},{"Venue_ID":"11175","Name":"Chaps Ice Cream","Cuisine":"Dessert","Address":"223 E Main St","Phone_Number":"4349774139","Hours":"Sun: 9 AM \u2013 9 PM \nMon-Thu: 8 AM \u2013 10 PM \nFri-Sat: 8 AM \u2013 11 PM  ","Formality":"Casual","Price_Range":"$","Description":"Gourmet ice cream shop also offers a full grill, donuts, and coffee.","Kid_Friendly":"1","Number_of_Favorites":"0"},{"Venue_ID":"11176","Name":"Duck Donuts ","Cuisine":"Dessert","Address":"The Shops at Stonefield, 2075 Bond St #120","Phone_Number":"4348231960","Hours":"Sun: 6 AM \u2013 5 PM \nMon-Sat: 6 AM \u2013 9 PM ","Formality":"Casual","Price_Range":"$","Description":"Donut and coffee shop serving out warm, delicious, made to order donuts. ","Kid_Friendly":"1","Number_of_Favorites":"0"},{"Venue_ID":"11177","Name":"SweetHaus","Cuisine":"Dessert","Address":"929 2nd St SE","Phone_Number":"4344222677","Hours":"Sun-Sat: 9 AM \u2013 7 PM ","Formality":"Casual","Price_Range":"$$","Description":"A mom 'n' pop cupcake and candy shop, creating small-batch, homemade treats that come in 2 sizes - mini and regular.","Kid_Friendly":"1","Number_of_Favorites":"0"},{"Venue_ID":"11178","Name":"The Pie Chest ","Cuisine":"Dessert\/Quick Bites","Address":"119 4th St NE","Phone_Number":"4349770443","Hours":"Sun: 10 AM \u2013 4 PM \nMon-Thu: 8 AM \u2013 6 PM \nFri-Sat: 8 AM \u2013 8 PM ","Formality":"Casual","Price_Range":"$$","Description":"Local bakery serving PIES. Lots and lots of pies: sweet, savory, breakfast, lunch, dinner, midnight snack. ","Kid_Friendly":"1","Number_of_Favorites":"0"},{"Venue_ID":"11179","Name":"Escafe","Cuisine":"American","Address":"215 Water St W","Phone_Number":"4342958668","Hours":"Sun: 5 PM \u2013 11 PM \nMon: CLOSED \nTue-Sat: 5 PM \u2013 11 PM","Formality":"Fancy","Price_Range":"$$","Description":"Busy eatery serving locally sourced, seasonal American plates in airy digs with frequent live music","Kid_Friendly":"0","Number_of_Favorites":"0"},{"Venue_ID":"11180","Name":"Crozet Pizza","Cuisine":"Pizza","Address":"20 Elliewood Ave","Phone_Number":"4342020592","Hours":"Sun: 11:30 AM - 10 PM\nMon: CLOSED \nTue-Wed: 11:30 AM - 12 PM \nThu-Sat: 11:30 AM - 2 AM ","Formality":"Casual","Price_Range":"$","Description":"Local pizza place serving hand-tossed pizzas. ","Kid_Friendly":"0","Number_of_Favorites":"0"},{"Venue_ID":"11181","Name":"Splendora's Gelato","Cuisine":"Dessert","Address":"317 E Main St","Phone_Number":"4342968555","Hours":"Sun: 12 PM \u2013 10 PM \nMon-Thu: 7:30 AM \u2013 10 PM \nFri: 7:30 AM \u2013 11 PM \nSat: 9 AM \u2013 10 PM ","Formality":"Sit-Down","Price_Range":"$","Description":"Classic, unique & seasonally inspired gelato along with espresso drinks in a colorful storefront.","Kid_Friendly":"1","Number_of_Favorites":"0"},{"Venue_ID":"11182","Name":"Carpe Donut ","Cuisine":"Dessert","Address":"1715 Allied Ln","Phone_Number":"4342180386","Hours":"Sun-Mon: CLOSED \nTue-Sat: 8 PM \u2013 1 PM ","Formality":"Casual","Price_Range":"$","Description":"We believe in real food. We believe in organic food. We believe in locally-produced food. We also believe in lots of pure cane sugar, because hey, a donut is a donut. We love being able to work together as a family, and spend time out in the community chatting with friends old and new over something as fine and simple as a donut.","Kid_Friendly":"1","Number_of_Favorites":"1"},{"Venue_ID":"11183","Name":"Dunkin' Donuts ","Cuisine":"Coffee Shop\/Quick Bites ","Address":"2235 Seminole Ln","Phone_Number":"4349733399","Hours":"Sun: 7 AM \u2013 11 PM\nMon-Thu: 6 AM \u2013 11 PM\nFri-Sat: 6 AM \u2013 12 PM  ","Formality":"Fast Food","Price_Range":"$","Description":"American global donut company and coffeehouse.","Kid_Friendly":"1","Number_of_Favorites":"0"},{"Venue_ID":"11184","Name":"Donut Connection ","Cuisine":"Dessert","Address":"852 W Main St #108","Phone_Number":"4349238880","Hours":"Sun: 9 AM \u2013 7 PM\nMon-Fri: 6 AM \u2013 10 PM \nSat: 8 AM \u2013 10 PM  ","Formality":"Casual","Price_Range":"$","Description":"Donut Connection's menu offers a wide range of choices from donuts, to ice cream, to sandwiches, to pizza, to espresso drinks and more!","Kid_Friendly":"1","Number_of_Favorites":"0"},{"Venue_ID":"11185","Name":"Greenberry's Coffee & Tea Co.","Cuisine":"Coffee Shop\/Quick Bites ","Address":"1049 Emmet St N","Phone_Number":"4349840200","Hours":"Sat-Sun: 7 AM \u2013 8 PM\nMon-Fri: 6:30 AM \u2013 8 PM ","Formality":"Casual","Price_Range":"$","Description":"Popular cafe and coffee roaster","Kid_Friendly":"1","Number_of_Favorites":"0"},{"Venue_ID":"11186","Name":"Lemongrass","Cuisine":"Thai ","Address":"104 14th St, NW","Phone_Number":"4342448424","Hours":"Sat-Sun: 12 PM - 9 PM \nMon: CLOSED\nTue-Fri: 11 AM - 2:30 PM, 5 PM - 9 PM   Sat-Sun","Formality":"Sit-Down","Price_Range":"$$","Description":"Lemongrass is located in the heart of the UVA Campus and brings market-fresh cuisine, attentive service and a soothing ambiance that lets you concentrate on the food. The modern decor of our dining room provides a relaxing atmosphere for a casual business lunch or an informal dinner before a movie.","Kid_Friendly":"1","Number_of_Favorites":"0"},{"Venue_ID":"11187","Name":"Gingko","Cuisine":"Chinese","Address":"104 14th St. NW #8","Phone_Number":"4348729386","Hours":"Sun: 11:30 AM - 10:30 PM \nMon-Thu: 11 AM - 10 PM \nFri: 11 AM - 10:30 PM\nSat: 11:30 AM - 10:30 PM2pm - 10pm Sun","Formality":"Sit-Down","Price_Range":"$$","Description":"known for its modern interpretation of classic dishes and its insistence on only using high quality fresh ingredients.","Kid_Friendly":"1","Number_of_Favorites":"0"},{"Venue_ID":"11188","Name":"Mudhouse ","Cuisine":"Coffee Shop\/Quick Bites ","Address":"213 W Main St","Phone_Number":"4349846833","Hours":"Sun: 7 AM \u2013 7 PM \nMon-Fri: 7 AM \u2013 10 PM \nSat: 7 AM \u2013 11 PM ","Formality":"Casual","Price_Range":"$","Description":"Local Cafe and Coffee Roaster","Kid_Friendly":"0","Number_of_Favorites":"0"},{"Venue_ID":"11189","Name":"Java Java ","Cuisine":"Coffee Shop\/Quick Bites ","Address":"421 E Main St. ","Phone_Number":"4342450020","Hours":"Sun: 9 AM \u2013 5 PM \nMon-Fri: 7 AM \u2013 6 PM\nSat: 8 AM \u2013 6 PM ","Formality":"Casual","Price_Range":"$","Description":"Cozy Local Cafe and Coffee Roaster","Kid_Friendly":"1","Number_of_Favorites":"0"},{"Venue_ID":"11190","Name":"The Well House Cafe ","Cuisine":"Coffee Shop\/Quick Bites ","Address":"118 10 1\/2 St NW","Phone_Number":"4349730002","Hours":"Sat-Sun: CLOSED\nMon-Fri: 7:30 AM \u2013 3:30 PM ","Formality":"Casual","Price_Range":"$","Description":"Local Cafe and Coffee Roaster","Kid_Friendly":"1","Number_of_Favorites":"0"},{"Venue_ID":"11191","Name":"Grit Coffee Bar & Cafe","Cuisine":"Coffee Shop\/Quick Bites ","Address":"19 Elliewood Ave.","Phone_Number":"4342934412","Hours":"Sat-Sun: 9 AM \u2013 5 PM \nMon-Fri: 7 AM \u2013 6 PM ","Formality":"Casual","Price_Range":"$","Description":"Local cafe and coffee bar offering coffee, espresso, grab-and go-breakfast and lunch, wine, and beer.","Kid_Friendly":"0","Number_of_Favorites":"0"},{"Venue_ID":"11192","Name":"Atlas Coffee ","Cuisine":"Coffee Shop\/Quick Bites ","Address":"2206 Fontaine Ave. ","Phone_Number":"4349701700","Hours":"Sun: CLOSEDMon-Sat: 7 AM \u2013 3 PM ","Formality":"Fast Food","Price_Range":"$","Description":"Local cafe and coffee bar serving great coffee, espresso, and tea.","Kid_Friendly":"1","Number_of_Favorites":"0"},{"Venue_ID":"11193","Name":"Twisted Branch Tea Bazaar","Cuisine":"Mediterranean\/Quick Bites","Address":"414 E Main St. ","Phone_Number":"4342939947","Hours":"Mon-Wed: 11:30 AM - 11 PM\nThu-Sat: 11:30 AM - 12 AM\nClosed Sunday","Formality":"Sit-Down","Price_Range":"$$","Description":"Loose-leaf teas, veggie bites, beer & wine in a laid-back setting with an adjacent hookah lounge.","Kid_Friendly":"0","Number_of_Favorites":"0"},{"Venue_ID":"11194","Name":"HotCakes","Cuisine":"Coffee Shop\/Quick Bites ","Address":"1137 Emmet St. N # A","Phone_Number":"4342956037","Hours":"Sun: 10 AM \u2013 6 PM \nMon-Fri: 8 AM \u2013 8 PM\nSat: 9 AM \u2013 8 PM  ","Formality":"Casual","Price_Range":"$","Description":"Local coffee roaster and caf\u00e9 that serves a variety of appetizers, specialty entr\u00e9es and fabulous desserts.","Kid_Friendly":"1","Number_of_Favorites":"0"},{"Venue_ID":"11195","Name":"Cville Coffee ","Cuisine":"Coffee Shop\/Quick Bites ","Address":"1301 Harris St. ","Phone_Number":"4348172633","Hours":"Sun: 9:30 AM \u2013 6 PM\nMon-Thu: 7:30 AM \u2013 8 PM \nFri: 7:30 AM \u2013 6 PM \nSat: 8:30 AM \u2013 6 PM  ","Formality":"Casual","Price_Range":"$","Description":"Comfy coffeehouse offering espresso drinks & casual daytime eats, plus live music on the weekends.","Kid_Friendly":"1","Number_of_Favorites":"1"},{"Venue_ID":"11196","Name":"Skybar","Cuisine":"Italian\/American","Address":"422 E Main St","Phone_Number":"4342027728","Hours":"Sun: 10 AM \u2013 3 PM \nMon-Wed: 5 PM \u2013 10 PM \nThu-Sat: 5 PM \u2013 11 PM  ","Formality":"Fancy","Price_Range":"$$$","Description":"Stylish venue in Charlottesville, VA boasts New American fare with Latin accents, craft cocktails & a busy rooftop bar.","Kid_Friendly":"0","Number_of_Favorites":"0"},{"Venue_ID":"11197","Name":"Rapture","Cuisine":"American","Address":"300 East Main St","Phone_Number":"4342939526","Hours":"Sun: 11 AM \u2013 2 AM \nMon-Sat: 11:30 AM \u2013 2 AM  ","Formality":"Fancy","Price_Range":"$$$","Description":"Restaurant & night club at the Charlottesville downtown mall specializing in southern cooking with local ingredients","Kid_Friendly":"0","Number_of_Favorites":"1"},{"Venue_ID":"11198","Name":"Calvino Cafe ","Cuisine":"Coffee Shop\/Quick Bites ","Address":"408 W Main St","Phone_Number":"4342935696","Hours":"Sun: 9 AM \u2013 4 PM\nMon-Sat: 8:30 AM \u2013 4 PM  ","Formality":"Casual","Price_Range":"$","Description":"Calvino Serves Breakfast, Lunch, Shenandoah Joe's Coffee and Smoothies.","Kid_Friendly":"1","Number_of_Favorites":"0"},{"Venue_ID":"11199","Name":"Miller's","Cuisine":"American","Address":"109 W Main St","Phone_Number":"4349718511","Hours":"Sun-Sat: 11 AM - 2 AM ","Formality":"Casual","Price_Range":"$$","Description":"Hot Food & Cold Drinks in a Timely Fashion.","Kid_Friendly":"0","Number_of_Favorites":"0"},{"Venue_ID":"11200","Name":"Lone Light Coffee ","Cuisine":"Coffee Shop\/Quick Bites ","Address":"119 4th St, NE","Phone_Number":"4349770443","Hours":"Sun: 10 AM \u2013 4 PM\nMon-Thu: 8 AM \u2013 6 PM \nFri-Sat: 8 AM \u2013 8 PM  ","Formality":"Casual","Price_Range":"$","Description":"Specialty coffee shop located inside The Pie Chest downtown Charlottesville, VA.","Kid_Friendly":"0","Number_of_Favorites":"0"},{"Venue_ID":"11201","Name":"Charlottesville Draft Taproom","Cuisine":"American","Address":"425 E Main St","Phone_Number":"4344225901","Hours":"Sun: 12 PM \u2013 12 AM \nMon-Thu: 11 AM \u2013 12 AM \nFri: 11 AM \u2013 1:30 AM \nSat: 12 PM \u2013 1:30 AM  ","Formality":"Casual","Price_Range":"$$","Description":"An absolute beer lover\u2019s dream come true, we are independently owned taproom and casual restaurant which will feature 60 taps focused on a large, diverse selection of craft beer styles, along with a small selection of hard ciders and wine. At Draft, customers will pay for beers by the ounce, accessed through an innovative self-serve pouring system that offers the freedom to try a variety of beer","Kid_Friendly":"0","Number_of_Favorites":"0"},{"Venue_ID":"11202","Name":"Heirloom","Cuisine":"American","Address":"1309 W Main St","Phone_Number":"4342954333","Hours":"Sun-Thu: 4 PM \u2013 12 AM  \nFri-Sat: 4 PM \u2013 1:30 AM ","Formality":"Fancy","Price_Range":"$$$","Description":"Rooftop restaurant and bar overlooking the Southwest Mountains with homespun small plates and fresh fare to share.","Kid_Friendly":"0","Number_of_Favorites":"0"},{"Venue_ID":"11203","Name":"Beer Run ","Cuisine":"American","Address":"156 Carlton Rd, Ste 203","Phone_Number":"4349842337","Hours":"Sun: 11 AM \u2013 10 PM \nMon: 8 AM \u2013 10 PM \nTue-Thu: 8 AM \u2013 11 PM \nFri-Sat: 8 AM \u2013 12 AM ","Formality":"Casual","Price_Range":"$$","Description":"Beer Run is a craft beer bottle and wine shop, restaurant, and bar all wrapped up in one. It is kid friendly, pet friendly, and an overall great neighborhood hangout. The food menu is carefully planned to maximize seasonal, locally sourced and organic ingredients.","Kid_Friendly":"0","Number_of_Favorites":"0"}]